[
  {
    "stop_id": "MONUMENTO",
    "name": "Monumento",
    "lat": 14.6544,
    "lng": 120.9841,
    "sequence": 1,
    "distance_km": 0.0,
    "type": "median",
    "connections": {
      "rail": ["LRT-1 Monumento"]
    }
  },
  {
    "stop_id": "BAGONG_BARRIO",
    "name": "Bagong Barrio",
    "lat": 14.6572,
    "lng": 120.9918,
    "sequence": 2,
    "distance_km": 0.55,
    "type": "median",
    "connections": {}
  },
  {
    "stop_id": "BALINTAWAK",
    "name": "Balintawak",
    "lat": 14.6576,
    "lng": 121.0042,
    "sequence": 3,
    "distance_km": 2.10,
    "type": "median",
    "connections": {
      "rail": ["LRT-1 Balintawak"],
      "mall": "Ayala Malls Cloverleaf"
    }
  },
  {
    "stop_id": "KAINGIN",
    "name": "Kaingin Road",
    "lat": 14.6559,
    "lng": 121.0118,
    "sequence": 4,
    "distance_km": 2.90,
    "type": "median",
    "connections": {}
  },
  {
    "stop_id": "ROOSEVELT",
    "name": "Roosevelt / Fernando Poe Jr.",
    "lat": 14.6525,
    "lng": 121.0201,
    "sequence": 5,
    "distance_km": 4.00,
    "type": "median",
    "connections": {
      "rail": ["LRT-1 Fernando Poe Jr."]
    }
  },
  {
    "stop_id": "SM_NORTH",
    "name": "SM North EDSA",
    "lat": 14.6558,
    "lng": 121.0305,
    "sequence": 6,
    "distance_km": 5.00,
    "type": "concourse",
    "connections": {
      "rail": ["MRT-3 North Avenue", "MRT-7 (future)", "MMS (future)"],
      "mall": "SM North EDSA"
    }
  },
  {
    "stop_id": "NORTH_AVE",
    "name": "North Avenue",
    "lat": 14.6519,
    "lng": 121.0340,
    "sequence": 7,
    "distance_km": 5.50,
    "type": "median",
    "connections": {
      "rail": ["MRT-3 North Avenue"]
    }
  },
  {
    "stop_id": "PHILAM",
    "name": "Philam / Ormoc",
    "lat": 14.6420,
    "lng": 121.0382,
    "sequence": 8,
    "distance_km": 6.30,
    "type": "median",
    "connections": {}
  },
  {
    "stop_id": "QUEZON_AVE",
    "name": "Quezon Avenue",
    "lat": 14.6350,
    "lng": 121.0418,
    "sequence": 9,
    "distance_km": 6.80,
    "type": "median",
    "connections": {
      "rail": ["MRT-3 Quezon Avenue"]
    }
  },
  {
    "stop_id": "KAMUNING",
    "name": "Kamuning",
    "lat": 14.6280,
    "lng": 121.0460,
    "sequence": 10,
    "distance_km": 7.60,
    "type": "median",
    "connections": {
      "rail": ["MRT-3 GMA-Kamuning"]
    }
  },
  {
    "stop_id": "NEPA_QMART",
    "name": "Nepa Q-Mart",
    "lat": 14.6223,
    "lng": 121.0493,
    "sequence": 11,
    "distance_km": 8.60,
    "type": "median",
    "connections": {
      "mall": "Nepa Q-Mart"
    }
  },
  {
    "stop_id": "MAIN_AVE",
    "name": "Main Avenue",
    "lat": 14.6145,
    "lng": 121.0462,
    "sequence": 12,
    "distance_km": 10.20,
    "type": "median",
    "connections": {}
  },
  {
    "stop_id": "SANTOLAN",
    "name": "Santolan-Annapolis",
    "lat": 14.6074,
    "lng": 121.0432,
    "sequence": 13,
    "distance_km": 11.00,
    "type": "median",
    "connections": {
      "rail": ["MRT-3 Santolan-Annapolis"]
    }
  },
  {
    "stop_id": "ORTIGAS",
    "name": "Ortigas",
    "lat": 14.5878,
    "lng": 121.0567,
    "sequence": 14,
    "distance_km": 13.40,
    "type": "median",
    "connections": {
      "rail": ["MRT-3 Ortigas"],
      "mall": "SM Megamall, Robinsons Galleria"
    }
  },
  {
    "stop_id": "GUADALUPE",
    "name": "Guadalupe",
    "lat": 14.5672,
    "lng": 121.0459,
    "sequence": 15,
    "distance_km": 15.80,
    "type": "median",
    "connections": {
      "rail": ["MRT-3 Boni", "MRT-3 Guadalupe"],
      "ferry": "Pasig River Ferry"
    }
  },
  {
    "stop_id": "BUENDIA",
    "name": "Buendia",
    "lat": 14.5543,
    "lng": 121.0340,
    "sequence": 16,
    "distance_km": 17.80,
    "type": "median",
    "connections": {
      "rail": ["MRT-3 Buendia"]
    }
  },
  {
    "stop_id": "AYALA",
    "name": "Ayala / One Ayala",
    "lat": 14.5498,
    "lng": 121.0286,
    "sequence": 17,
    "distance_km": 18.80,
    "type": "curbside",
    "connections": {
      "rail": ["MRT-3 Ayala"],
      "bus": "BGC Bus",
      "mall": "One Ayala, Glorietta, Greenbelt"
    }
  },
  {
    "stop_id": "TRAMO",
    "name": "Tramo",
    "lat": 14.5382,
    "lng": 121.0052,
    "sequence": 18,
    "distance_km": 22.30,
    "type": "median",
    "connections": {
      "rail": ["MRT-3 Taft Avenue", "LRT-1 EDSA"]
    }
  },
  {
    "stop_id": "TAFT",
    "name": "Taft Avenue",
    "lat": 14.5376,
    "lng": 120.9991,
    "sequence": 19,
    "distance_km": 23.30,
    "type": "median",
    "connections": {
      "rail": ["MRT-3 Taft Avenue", "LRT-1 EDSA"]
    }
  },
  {
    "stop_id": "ROXAS",
    "name": "Roxas Boulevard",
    "lat": 14.5353,
    "lng": 120.9892,
    "sequence": 20,
    "distance_km": 25.90,
    "type": "median",
    "connections": {}
  },
  {
    "stop_id": "MOA",
    "name": "SM Mall of Asia",
    "lat": 14.5353,
    "lng": 120.9823,
    "sequence": 21,
    "distance_km": 26.90,
    "type": "curbside",
    "connections": {
      "mall": "SM Mall of Asia"
    }
  },
  {
    "stop_id": "DFA",
    "name": "DFA - Aseana",
    "lat": 14.5270,
    "lng": 120.9860,
    "sequence": 22,
    "distance_km": 27.70,
    "type": "median",
    "connections": {}
  },
  {
    "stop_id": "AYALA_MALLS_MB",
    "name": "Ayala Malls Manila Bay",
    "lat": 14.5191,
    "lng": 120.9851,
    "sequence": 23,
    "distance_km": 28.40,
    "type": "terminal",
    "connections": {
      "mall": "Ayala Malls Manila Bay"
    }
  },
  {
    "stop_id": "PITX",
    "name": "PITX",
    "lat": 14.5089,
    "lng": 120.9880,
    "sequence": 24,
    "distance_km": 28.10,
    "type": "terminal",
    "connections": {
      "terminal": "PITX Main Terminal",
      "mall": "PITX Mall"
    }
  }
]
